{
 "note": "location string (trimmed, lowercased) -> {lat, lon, label} or null if unresolvable. poll.py fills new locations via Nominatim; committed so the dashboard never geocodes client-side.",
 "locations": {
  "espoo": {
   "lat": 60.2055,
   "lon": 24.6559,
   "label": "Espoo, Finland"
  },
  "valencia": {
   "lat": 39.4699,
   "lon": -0.3763,
   "label": "Valencia, Spain"
  },
  "valencia, spain": {
   "lat": 39.4699,
   "lon": -0.3763,
   "label": "Valencia, Spain"
  },
  "warsaw": {
   "lat": 52.2297,
   "lon": 21.0122,
   "label": "Warsaw, Poland"
  },
  "berlin": {
   "lat": 52.52,
   "lon": 13.405,
   "label": "Berlin, Germany"
  },
  "greece": {
   "lat": 37.9838,
   "lon": 23.7275,
   "label": "Athens, Greece"
  },
  "athens": {
   "lat": 37.9838,
   "lon": 23.7275,
   "label": "Athens, Greece"
  },
  "tokyo": {
   "lat": 35.6762,
   "lon": 139.6503,
   "label": "Tokyo, Japan"
  },
  "united arab emirates": {
   "lat": 24.4539,
   "lon": 54.3773,
   "label": "Abu Dhabi, UAE"
  },
  "lisbon": {
   "lat": 38.7223,
   "lon": -9.1393,
   "label": "Lisbon, Portugal"
  },
  "uk": {
   "lat": 51.5074,
   "lon": -0.1278,
   "label": "London, UK"
  },
  "santiago": {
   "lat": -33.4489,
   "lon": -70.6693,
   "label": "Santiago, Chile"
  },
  "new dehli": {
   "lat": 28.6139,
   "lon": 77.209,
   "label": "New Delhi, India"
  },
  "netherlands": {
   "lat": 52.3676,
   "lon": 4.9041,
   "label": "Amsterdam, Netherlands"
  },
  "kyiv": {
   "lat": 50.4501,
   "lon": 30.5234,
   "label": "Kyiv, Ukraine"
  },
  "indonesia": {
   "lat": -6.2088,
   "lon": 106.8456,
   "label": "Jakarta, Indonesia"
  },
  "berlin, germany": {
   "lat": 52.5173885,
   "lon": 13.3951309,
   "label": "Berlin"
  },
  "munich, germany": {
   "lat": 48.1371079,
   "lon": 11.5753822,
   "label": "München"
  },
  "barcelona": {
   "lat": 41.3825802,
   "lon": 2.177073,
   "label": "Barcelona"
  },
  "london": {
   "lat": 51.5074456,
   "lon": -0.1277653,
   "label": "Greater London"
  },
  "munich": {
   "lat": 48.1371079,
   "lon": 11.5753822,
   "label": "München"
  },
  "washington, dc": {
   "lat": 38.8950982,
   "lon": -77.0363849,
   "label": "Washington"
  },
  "liveeo gmbh berlin (onsite)": null,
  "liveeo gmbh berlin office (hybrid)": null,
  "athens, greece": {
   "lat": 37.9755648,
   "lon": 23.7348324,
   "label": "Αθήνα"
  },
  "barcelona, spain": {
   "lat": 41.3825802,
   "lon": 2.177073,
   "label": "Barcelona"
  },
  "coimbra, portugal": {
   "lat": 40.2111931,
   "lon": -8.4294632,
   "label": "Coimbra"
  },
  "harwell, uk": {
   "lat": 51.5999743,
   "lon": -1.2909164,
   "label": "Harwell"
  },
  "porto, portugal": {
   "lat": 41.1502195,
   "lon": -8.6103497,
   "label": "Porto"
  },
  "belgium": {
   "lat": 50.6402809,
   "lon": 4.6667145,
   "label": "België / Belgique / Belgien"
  },
  "united kingdom": {
   "lat": 54.7023545,
   "lon": -3.2765753,
   "label": "United Kingdom"
  },
  "emea": null,
  "usa": {
   "lat": 39.7837304,
   "lon": -100.445882,
   "label": "United States"
  },
  "abu dhabi, uae": {
   "lat": 24.4538352,
   "lon": 54.3774014,
   "label": "أبو ظبي"
  },
  "arlington, va": {
   "lat": 38.8769326,
   "lon": -77.0893094,
   "label": "Arlington County"
  },
  "graz, austria": {
   "lat": 47.0708678,
   "lon": 15.4382786,
   "label": "Graz"
  },
  "haarlem, netherlands": {
   "lat": 52.3885317,
   "lon": 4.6388048,
   "label": "Haarlem"
  },
  "ljubljana, slovenia": {
   "lat": 46.0500268,
   "lon": 14.5069289,
   "label": "Ljubljana"
  },
  "san francisco, ca": {
   "lat": 37.7879363,
   "lon": -122.4075201,
   "label": "San Francisco"
  },
  "san francisco, california": {
   "lat": 37.7879363,
   "lon": -122.4075201,
   "label": "San Francisco"
  },
  "stockholm, sweden": {
   "lat": 59.3251172,
   "lon": 18.0710935,
   "label": "Stockholm"
  },
  "washington dc": {
   "lat": 38.8950982,
   "lon": -77.0363849,
   "label": "Washington"
  },
  "apac, remote": null,
  "canada, remote": {
   "lat": 61.0666922,
   "lon": -107.991707,
   "label": "Canada",
   "remote": true
  },
  "europe, remote": null,
  "france, remote": {
   "lat": 46.603354,
   "lon": 1.8883335,
   "label": "France",
   "remote": true
  },
  "germany, remote": {
   "lat": 51.1638175,
   "lon": 10.4478313,
   "label": "Germany",
   "remote": true
  },
  "japan, remote": {
   "lat": 36.5748441,
   "lon": 139.2394179,
   "label": "Japan",
   "remote": true
  },
  "latam, remote": null,
  "netherlands, remote": {
   "lat": 52.2434979,
   "lon": 5.6343227,
   "label": "Netherlands",
   "remote": true
  },
  "remote": null,
  "sweden, remote": {
   "lat": 59.6749712,
   "lon": 14.5208584,
   "label": "Sweden",
   "remote": true
  },
  "united kingdom, remote": {
   "lat": 54.7023545,
   "lon": -3.2765753,
   "label": "United Kingdom",
   "remote": true
  },
  "united states, remote": {
   "lat": 39.7837304,
   "lon": -100.445882,
   "label": "United States",
   "remote": true
  },
  "andenes, nordland, norway": {
   "lat": 69.3122989,
   "lon": 16.1057085,
   "label": "Andenes"
  },
  "arlington, united states": {
   "lat": 32.7355816,
   "lon": -97.1071186,
   "label": "Arlington"
  },
  "boulder": {
   "lat": 40.0149856,
   "lon": -105.270545,
   "label": "Boulder"
  },
  "boulder, co": {
   "lat": 40.0149856,
   "lon": -105.270545,
   "label": "Boulder"
  },
  "boulder, colorado, united states": {
   "lat": 40.0149856,
   "lon": -105.270545,
   "label": "Boulder"
  },
  "cambridge, ontario, canada": {
   "lat": 43.3600536,
   "lon": -80.3123023,
   "label": "Cambridge"
  },
  "glasgow": {
   "lat": 55.861155,
   "lon": -4.2501687,
   "label": "Glasgow"
  },
  "glasgow, scotland, united kingdom": {
   "lat": 55.861155,
   "lon": -4.2501687,
   "label": "Glasgow"
  },
  "glasgow, uk": {
   "lat": 55.861155,
   "lon": -4.2501687,
   "label": "Glasgow"
  },
  "kiruna, norrbotten, sweden": {
   "lat": 67.8496111,
   "lon": 20.30625,
   "label": "Kiruna"
  },
  "louisville, co": {
   "lat": 39.977763,
   "lon": -105.1319296,
   "label": "Louisville"
  },
  "munich, bavaria, germany": {
   "lat": 48.1371079,
   "lon": 11.5753822,
   "label": "München"
  },
  "ottobrunn, bavaria, germany": {
   "lat": 48.0648406,
   "lon": 11.6647814,
   "label": "Ottobrunn"
  },
  "parsdorf, bavaria, germany": {
   "lat": 48.1418976,
   "lon": 11.787412,
   "label": "Parsdorf"
  },
  "remote, us": {
   "lat": 39.7837304,
   "lon": -100.445882,
   "label": "US",
   "remote": true
  },
  "reston, united states": {
   "lat": 38.953282,
   "lon": -77.3464516,
   "label": "Reston"
  },
  "san francisco, ca, louisville, co or remote": null,
  "santa barbara, united states": {
   "lat": 34.4221319,
   "lon": -119.702667,
   "label": "Santa Barbara"
  },
  "washington, district of columbia, united states": {
   "lat": 38.8950982,
   "lon": -77.0363849,
   "label": "Washington"
  },
  "australia, remote": {
   "lat": -24.7761086,
   "lon": 134.755,
   "label": "Australia",
   "remote": true
  },
  "australia": {
   "lat": -24.7761086,
   "lon": 134.755,
   "label": "Australia"
  },
  "washington d.c": {
   "lat": 38.8950982,
   "lon": -77.0363849,
   "label": "Washington"
  },
  "paris": {
   "lat": 48.8534951,
   "lon": 2.3483915,
   "label": "Paris"
  }
 }
}
